$GPGSV,4,3,13,22,16,317,27,25,26,066,00,26,24,168,00,31,80,303,15*7B
$GPGSV,4,4,13,32,40,035,00*48
$GLGSV,3,1,10,68,04,113,00,69,42,077,00,70,40,352,14,71,04,317,15*67
$GLGSV,3,2,10,73,47,194,00,79,17,026,00,80,76,059,00,84,00,000,00*6B
$GLGSV,3,3,10,85,08,255,16,86,02,305,22*6E
$BDGSV,2,1,8,01,23,105,00,02,60,181,00,03,48,130,00,04,04,095,00*5A
$BDGSV,2,2,8,05,47,229,00,07,65,071,00,09,57,045,00,13,05,180,00*59
$GPGGA,082238,2321.020140,N,08518.464638,E,1,13,,669.4,M,-55.4,M,,*43
$GPVTG,,T,,M,0.0,N,0.0,K,A*23
$GPRMC,082238,A,2321.020140,N,08518.464638,E,0.0,,040117,0.0,W,A*2D
$GPGSA,A,3,01,03,10,11,14,22,31,,,,,,2.1,1.4,1.6*37
$GNGSA,A,3,01,03,10,11,14,22,31,,,,,,2.1,1.4,1.6*29
$GNGSA,A,3,70,71,85,86,,,,,,,,,2.1,1.4,1.6*2F
$BDGSA,A,3,,,,,,,,,,,,,2.1,1.4,1.6*22
$GPGSV,4,1,13,01,22,302,23,03,01,316,18,10,49,116,12,11,15,277,19*77
$GPGSV,4,2,13,12,00,000,00,14,48,357,21,16,02,187,00,18,19,127,00*7B
$GPGSV,4,3,13,22,16,317,28,25,26,066,00,26,24,168,00,31,80,303,15*74
$GPGSV,4,4,13,32,40,035,00*48
$GLGSV,3,1,10,68,04,113,00,69,42,077,00,70,40,352,14,71,04,317,14*66
$GLGSV,3,2,10,73,47,194,00,79,17,026,00,80,76,059,00,84,00,000,00*6B
$GLGSV,3,3,10,85,08,255,16,86,02,305,24*68
$BDGSV,2,1,8,01,23,105,00,02,60,181,00,03,48,130,00,04,04,095,00*5A
$BDGSV,2,2,8,05,47,229,00,07,65,071,00,09,57,045,00,13,05,180,00*59
$GPGGA,082240,2321.020141,N,08518.464641,E,1,13,,669.4,M,-55.4,M,,*43
$GPVTG,,T,,M,0.0,N,0.0,K,A*23
$GPRMC,082240,A,2321.020141,N,08518.464641,E,0.0,,040117,0.0,W,A*2D
$GPGSA,A,3,01,03,10,11,14,22,31,,,,,,2.1,1.4,1.6*37
$GNGSA,A,3,01,03,10,11,14,22,31,,,,,,2.1,1.4,1.6*29
$GNGSA,A,3,70,71,85,86,,,,,,,,,2.1,1.4,1.6*2F
$BDGSA,A,3,,,,,,,,,,,,,2.1,1.4,1.6*22
$GPGSV,4,1,13,01,22,302,22,03,01,316,17,10,49,116,12,11,15,277,18*78
$GPGSV,4,2,13,12,00,000,00,14,48,357,19,16,02,187,00,18,19,127,00*70
$GPGSV,4,3,13,22,16,317,27,25,26,066,00,26,24,168,00,31,80,303,14*7A
$GPGSV,4,4,13,32,40,035,00*48
$GLGSV,3,1,10,68,04,113,00,69,42,077,00,70,40,352,14,71,04,317,14*66
$GLGSV,3,2,10,73,47,194,00,79,17,026,00,80,76,059,00,84,00,000,00*6B
$GLGSV,3,3,10,85,08,255,16,86,02,305,23*6F
$BDGSV,2,1,8,01,23,105,00,02,60,181,00,03,48,130,00,04,04,095,00*5A
$BDGSV,2,2,8,05,47,229,00,07,65,071,00,09,57,045,00,13,05,180,00*59
$GPGGA,082241,2321.020141,N,08518.464643,E,1,13,,669.4,M,-55.4,M,,*40
$GPVTG,,T,,M,0.0,N,0.0,K,A*23
$GPRMC,082241,A,2321.020141,N,08518.464643,E,0.0,,040117,0.0,W,A*2E
$GPGSA,A,3,01,03,10,11,14,22,31,,,,,,2.1,1.4,1.6*37
$GNGSA,A,3,01,03,10,11,14,22,31,,,,,,2.1,1.4,1.6*29
$GNGSA,A,3,70,71,85,86,,,,,,,,,2.1,1.4,1.6*2F
$BDGSA,A,3,,,,,,,,,,,,,2.1,1.4,1.6*22
$GPGSV,4,1,13,01,22,302,22,03,01,316,17,10,49,116,12,11,15,277,18*78
$GPGSV,4,2,13,12,00,000,00,14,48,357,20,16,02,187,00,18,19,127,00*7A
$GPGSV,4,3,13,22,16,317,27,25,26,066,00,26,24,168,00,31,80,303,14*7A
$GPGSV,4,4,13,32,40,035,00*48
$GLGSV,3,1,10,68,04,113,00,69,42,077,00,70,40,352,15,71,04,317,16*65
$GLGSV,3,2,10,73,47,194,00,79,17,026,00,80,76,059,00,84,00,000,00*6B
$GLGSV,3,3,10,85,08,255,13,86,02,305,23*6A
$BDGSV,2,1,8,01,23,105,00,02,60,181,00,03,48,130,00,04,04,095,00*5A
$BDGSV,2,2,8,05,47,229,00,07,65,071,00,09,57,045,00,13,05,180,00*59
$GPGGA,082241,2321.020141,N,08518.464643,E,1,13,,669.4,M,-55.4,M,,*40
$GPVTG,,T,,M,0.0,N,0.0,K,A*23
$GPRMC,082241,A,2321.020141,N,08518.464643,E,0.0,,040117,0.0,W,A*2E
$GPGSA,A,3,01,03,10,11,14,22,31,,,,,,2.1,1.3,1.6*30
$GNGSA,A,3,01,03,10,11,14,22,31,,,,,,2.1,1.3,1.6*2E
$GNGSA,A,3,70,71,85,86,,,,,,,,,2.1,1.3,1.6*28
$BDGSA,A,3,,,,,,,,,,,,,2.1,1.3,1.6*25
$GPGSV,4,1,13,01,22,300,23,03,02,317,18,10,48,118,12,11,15,275,18*7B
$GPGSV,4,2,13,12,00,000,00,14,48,357,20,16,03,187,00,18,19,129,00*75
$GPGSV,4,3,13,22,17,317,27,25,25,066,00,26,25,167,00,31,80,309,14*7C
$GPGSV,4,4,13,32,40,036,00*4B
$GLGSV,3,1,10,68,04,113,00,69,42,077,00,70,40,354,15,71,04,317,16*63
$GLGSV,3,2,10,73,47,194,00,79,16,026,00,80,75,054,00,84,00,000,00*64
$GLGSV,3,3,10,85,08,255,13,86,02,303,23*6C
$BDGSV,2,1,8,01,23,105,00,02,60,181,00,03,48,130,00,04,04,095,00*5A
$BDGSV,2,2,8,05,47,229,00,07,65,071,00,09,57,045,00,13,05,180,00*59
$GPGGA,082242,2321.020141,N,08518.464644,E,1,13,,669.4,M,-55.4,M,,*44
$GPVTG,,T,,M,0.0,N,0.0,K,A*23
$GPRMC,082242,A,2321.020141,N,08518.464644,E,0.0,,040117,0.0,W,A*2A
$GPGSA,A,3,01,03,10,11,14,22,31,,,,,,2.1,1.3,1.6*30
$GNGSA,A,3,01,03,10,11,14,22,31,,,,,,2.1,1.3,1.6*2E
$GNGSA,A,3,70,71,85,86,,,,,,,,,2.1,1.3,1.6*28
$BDGSA,A,3,,,,,,,,,,,,,2.1,1.3,1.6*25
$GPGSV,4,1,13,01,22,300,22,03,02,317,19,10,48,118,12,11,15,275,21*71
$GPGSV,4,2,13,12,00,000,00,14,48,357,20,16,03,187,00,18,19,129,00*75
$GPGSV,4,3,13,22,17,317,27,25,25,066,00,26,25,167,00,31,80,307,14*72
$GPGSV,4,4,13,32,40,036,00*4B
$GLGSV,3,1,10,68,04,113,00,69,42,077,00,70,40,354,15,71,04,317,16*63
$GLGSV,3,2,10,73,47,194,00,79,16,026,00,80,75,054,00,84,00,000,00*64
$GLGSV,3,3,10,85,08,255,17,86,02,303,23*68
$BDGSV,2,1,8,01,23,105,00,02,60,181,00,03,48,130,00,04,04,095,00*5A
$BDGSV,2,2,8,05,47,229,00,07,65,071,00,09,57,045,00,13,05,180,00*59
$GPGGA,082244,2321.020143,N,08518.464640,E,1,13,,669.4,M,-55.4,M,,*44
$GPVTG,,T,,M,0.0,N,0.0,K,A*23
$GPRMC,082244,A,2321.020143,N,08518.464640,E,0.0,,040117,0.0,W,A*2A
$GPGSA,A,3,01,03,10,11,14,22,31,,,,,,2.1,1.3,1.6*30
$GNGSA,A,3,01,03,10,11,14,22,31,,,,,,2.1,1.3,1.6*2E
$GNGSA,A,3,70,71,85,86,,,,,,,,,2.1,1.3,1.6*28
$BDGSA,A,3,,,,,,,,,,,,,2.1,1.3,1.6*25
$GPGSV,4,1,13,01,22,300,22,03,02,317,19,10,48,118,12,11,15,275,20*70
$GPGSV,4,2,13,12,00,000,00,14,48,357,21,16,03,187,00,18,19,129,00*74
$GPGSV,4,3,13,22,17,317,26,25,25,066,00,26,25,167,00,31,80,307,14*73
$GPGSV,4,4,13,32,40,036,00*4B
$GLGSV,3,1,10,68,04,113,00,69,42,077,00,70,40,354,15,71,04,317,16*63
$GLGSV,3,2,10,73,47,194,00,79,16,026,00,80,75,054,00,84,00,000,00*64
$GLGSV,3,3,10,85,08,255,18,86,02,303,22*66
$BDGSV,2,1,8,01,23,105,00,02,60,181,00,03,48,130,00,04,04,095,00*5A
$BDGSV,2,2,8,05,47,229,00,07,65,071,00,09,57,045,00,13,05,180,00*59
$GPGGA,082245,2321.020146,N,08518.464639,E,1,13,,669.4,M,-55.4,M,,*4E
$GPVTG,,T,,M,0.0,N,0.0,K,A*23
$GPRMC,082245,A,2321.020146,N,08518.464639,E,0.0,,040117,0.0,W,A*20
$GPGSA,A,3,01,03,10,11,14,22,31,,,,,,2.1,1.3,1.6*30
$GNGSA,A,3,01,03,10,11,14,22,31,,,,,,2.1,1.3,1.6*2E
$GNGSA,A,3,70,71,85,86,,,,,,,,,2.1,1.3,1.6*28
$BDGSA,A,3,,,,,,,,,,,,,2.1,1.3,1.6*25
$GPGSV,4,1,13,01,22,300,23,03,02,317,17,10,48,118,12,11,15,275,20*7F
$GPGSV,4,2,13,12,00,000,00,14,48,357,19,16,03,187,00,18,19,129,00*7F
$GPGSV,4,3,13,22,17,317,26,25,25,066,00,26,25,167,00,31,80,307,14*73
$GPGSV,4,4,13,32,40,036,00*4B
$GLGSV,3,1,10,68,04,113,00,69,42,077,00,70,40,354,15,71,04,317,16*63
$GLGSV,3,2,10,73,47,194,00,79,16,026,00,80,75,054,00,84,00,000,00*64
$GLGSV,3,3,10,85,08,255,18,86,02,303,22*66
$BDGSV,2,1,8,01,23,105,00,02,60,181,00,03,48,130,00,04,04,095,00*5A
$BDGSV,2,2,8,05,47,229,00,07,65,071,00,09,57,045,00,13,05,180,00*59
$GPGGA,082246,2321.020144,N,08518.464641,E,1,13,,669.4,M,-55.4,M,,*40
$GPVTG,,T,,M,0.0,N,0.0,K,A*23
$GPRMC,082246,A,2321.020144,N,08518.464641,E,0.0,,040117,0.0,W,A*2E
$GPGSA,A,3,01,03,10,11,14,22,31,,,,,,2.1,1.3,1.6*30
$GNGSA,A,3,01,03,10,11,14,22,31,,,,,,2.1,1.3,1.6*2E
$GNGSA,A,3,70,71,85,86,,,,,,,,,2.1,1.3,1.6*28
$BDGSA,A,3,,,,,,,,,,,,,2.1,1.3,1.6*25
$GPGSV,4,1,13,01,22,300,25,03,02,317,18,10,48,118,12,11,15,275,21*77
$GPGSV,4,2,13,12,00,000,00,14,48,357,19,16,03,187,00,18,19,129,00*7F
$GPGSV,4,3,13,22,17,317,27,25,25,066,00,26,25,167,00,31,80,307,14*72
$GPGSV,4,4,13,32,40,036,00*4B
$GLGSV,3,1,10,68,04,113,00,69,42,077,00,70,40,354,15,71,04,317,14*61
$GLGSV,3,2,10,73,47,194,00,79,16,026,00,80,75,054,00,84,00,000,00*64
$GLGSV,3,3,10,85,08,255,18,86,02,303,22*66
$BDGSV,2,1,8,01,23,105,00,02,60,181,00,03,48,130,00,04,04,095,00*5A
$BDGSV,2,2,8,05,47,229,00,07,65,071,00,09,57,045,00,13,05,180,00*59
$GPGGA,082247,2321.020141,N,08518.464644,E,1,13,,669.4,M,-55.4,M,,*41
$GPVTG,,T,,M,0.0,N,0.0,K,A*23
$GPRMC,082247,A,2321.020141,N,08518.464644,E,0.0,,040117,0.0,W,A*2F
$GPGSA,A,3,01,03,10,11,14,22,31,,,,,,2.1,1.3,1.6*30
$GNGSA,A,3,01,03,10,11,14,22,31,,,,,,2.1,1.3,1.6*2E
$GNGSA,A,3,70,71,85,86,,,,,,,,,2.1,1.3,1.6*28
$BDGSA,A,3,,,,,,,,,,,,,2.1,1.3,1.6*25
$GPGSV,4,1,13,01,22,300,24,03,02,317,18,10,48,118,12,11,15,275,20*77
$GPGSV,4,2,13,12,00,000,00,14,48,357,21,16,03,187,00,18,19,129,00*74
$GPGSV,4,3,13,22,17,317,28,25,25,066,00,26,25,167,00,31,80,307,15*7C
$GPGSV,4,4,13,32,40,036,00*4B
$GLGSV,3,1,10,68,04,113,00,69,42,077,00,70,40,354,15,71,04,317,17*62
$GLGSV,3,2,10,73,47,194,00,79,16,026,00,80,75,054,00,84,00,000,00*64
$GLGSV,3,3,10,85,08,255,17,86,02,303,24*6F
$BDGSV,2,1,8,01,23,105,00,02,60,181,00,03,48,130,00,04,04,095,00*5A
$BDGSV,2,2,8,05,47,229,00,07,65,071,00,09,57,045,00,13,05,180,00*59
$GPGGA,082248,2321.020138,N,08518.464648,E,1,13,,669.4,M,-55.4,M,,*4C
$GPVTG,,T,,M,0.0,N,0.0,K,A*23
$GPRMC,082248,A,2321.020138,N,08518.464648,E,0.0,,040117,0.0,W,A*22
$GPGSA,A,3,01,03,10,11,14,22,31,,,,,,2.1,1.3,1.6*30
$GNGSA,A,3,01,03,10,11,14,22,31,,,,,,2.1,1.3,1.6*2E
$GNGSA,A,3,70,71,85,86,,,,,,,,,2.1,1.3,1.6*28
$BDGSA,A,3,,,,,,,,,,,,,2.1,1.3,1.6*25
$GPGSV,4,1,13,01,22,300,25,03,02,317,18,10,48,118,12,11,15,275,20*76
$GPGSV,4,2,13,12,00,000,00,14,48,357,20,16,03,187,00,18,19,129,00*75
$GPGSV,4,3,13,22,17,317,27,25,25,066,00,26,25,167,00,31,80,307,15*73
$GPGSV,4,4,13,32,40,036,00*4B
$GLGSV,3,1,10,68,04,113,00,69,42,077,00,70,40,354,16,71,04,317,19*6F
$GLGSV,3,2,10,73,47,194,00,79,16,026,00,80,75,054,00,84,00,000,00*64
$GLGSV,3,3,10,85,08,255,17,86,02,303,23*68
$BDGSV,2,1,8,01,23,105,00,02,60,181,00,03,48,130,00,04,04,095,00*5A
$BDGSV,2,2,8,05,47,229,00,07,65,071,00,09,57,045,00,13,05,180,00*59
$GPGGA,082249,2321.020136,N,08518.464653,E,1,13,,669.4,M,-55.4,M,,*49
$GPVTG,,T,,M,0.0,N,0.0,K,A*23
$GPRMC,082249,A,2321.020136,N,08518.464653,E,0.0,,040117,0.0,W,A*27
$GPGSA,A,3,01,03,10,11,14,22,31,,,,,,2.1,1.3,1.6*30
$GNGSA,A,3,01,03,10,11,14,22,31,,,,,,2.1,1.3,1.6*2E
$GNGSA,A,3,70,71,85,86,,,,,,,,,2.1,1.3,1.6*28
$BDGSA,A,3,,,,,,,,,,,,,2.1,1.3,1.6*25
$GPGSV,4,1,13,01,22,300,26,03,02,317,19,10,48,118,12,11,15,275,19*7E
$GPGSV,4,2,13,12,00,000,00,14,48,357,20,16,03,187,00,18,19,129,00*75
$GPGSV,4,3,13,22,17,317,28,25,25,066,00,26,25,167,00,31,80,307,15*7C
$GPGSV,4,4,13,32,40,036,00*4B
$GLGSV,3,1,10,68,04,113,00,69,42,077,00,70,40,354,16,71,04,317,20*65
$GLGSV,3,2,10,73,47,194,00,79,16,026,00,80,75,054,00,84,00,000,00*64
$GLGSV,3,3,10,85,08,255,18,86,02,303,25*61
$BDGSV,2,1,8,01,23,105,00,02,60,181,00,03,48,130,00,04,04,095,00*5A
$BDGSV,2,2,8,05,47,229,00,07,65,071,00,09,57,045,00,13,05,180,00*59
$GPGGA,082250,2321.020132,N,08518.464659,E,1,13,,669.4,M,-55.4,M,,*4F
$GPVTG,,T,,M,0.0,N,0.0,K,A*23
$GPRMC,082250,A,2321.020132,N,08518.464659,E,0.0,,040117,0.0,W,A*21
$GPGSA,A,3,01,03,11,14,22,31,,,,,,,4.2,3.1,2.8*39
$GNGSA,A,3,01,03,11,14,22,31,,,,,,,4.2,3.1,2.8*27
$GNGSA,A,3,70,71,85,86,,,,,,,,,4.2,3.1,2.8*20
$BDGSA,A,3,,,,,,,,,,,,,4.2,3.1,2.8*2D
$GPGSV,4,1,13,01,22,300,25,03,02,317,19,10,48,118,00,11,15,275,21*75
$GPGSV,4,2,13,12,00,000,00,14,48,357,18,16,03,187,00,18,19,129,00*7E
$GPGSV,4,3,13,22,17,317,28,25,25,066,00,26,25,167,00,31,80,307,15*7C
$GPGSV,4,4,13,32,40,036,00*4B
$GLGSV,3,1,10,68,04,113,00,69,42,077,00,70,40,354,16,71,04,317,20*65
$GLGSV,3,2,10,73,47,194,00,79,16,026,00,80,75,054,00,84,00,000,00*64
$GLGSV,3,3,10,85,08,255,20,86,02,303,25*6A
$BDGSV,2,1,8,01,23,105,00,02,60,181,00,03,48,130,00,04,04,095,00*5A
$BDGSV,2,2,8,05,47,229,00,07,65,071,00,09,57,045,00,13,05,180,00*59
$GPGGA,082251,2321.020119,N,08518.464675,E,1,13,,669.4,M,-55.4,M,,*49
$GPVTG,,T,,M,0.0,N,0.0,K,A*23
$GPRMC,082251,A,2321.020119,N,08518.464675,E,0.0,,040117,0.0,W,A*27
$GPGSA,A,3,01,03,11,14,22,31,,,,,,,4.2,3.1,2.8*39
$GNGSA,A,3,01,03,11,14,22,31,,,,,,,4.2,3.1,2.8*27
$GNGSA,A,3,70,71,85,86,,,,,,,,,4.2,3.1,2.8*20
$BDGSA,A,3,,,,,,,,,,,,,4.2,3.1,2.8*2D
$GPGSV,4,1,13,01,22,300,24,03,02,317,17,10,48,118,00,11,15,275,20*7B
$GPGSV,4,2,13,12,00,000,00,14,48,357,19,16,03,187,00,18,19,129,00*7F
$GPGSV,4,3,13,22,17,317,28,25,25,066,00,26,25,167,00,31,80,307,15*7C
$GPGSV,4,4,13,32,40,036,00*4B
$GLGSV,3,1,10,68,04,113,00,69,42,077,00,70,40,354,16,71,04,317,17*61
$GLGSV,3,2,10,73,47,194,00,79,16,026,00,80,75,054,00,84,00,000,00*64
$GLGSV,3,3,10,85,08,255,21,86,02,303,25*6B
$BDGSV,2,1,8,01,23,105,00,02,60,181,00,03,48,130,00,04,04,095,00*5A
$BDGSV,2,2,8,05,47,229,00,07,65,071,00,09,57,045,00,13,05,180,00*59
$GPGGA,082252,2321.020111,N,08518.464684,E,1,13,,669.4,M,-55.4,M,,*4C
$GPVTG,,T,,M,0.0,N,0.0,K,A*23
$GPRMC,082252,A,2321.020111,N,08518.464684,E,0.0,,040117,0.0,W,A*22
$GPGSA,A,3,01,03,11,14,22,31,,,,,,,4.2,3.1,2.8*39
$GNGSA,A,3,01,03,11,14,22,31,,,,,,,4.2,3.1,2.8*27
$GNGSA,A,3,70,71,85,86,,,,,,,,,4.2,3.1,2.8*20
$BDGSA,A,3,,,,,,,,,,,,,4.2,3.1,2.8*2D
$GPGSV,4,1,13,01,22,300,24,03,02,317,17,10,48,118,00,11,15,275,20*7B
$GPGSV,4,2,13,12,00,000,00,14,48,357,19,16,03,187,00,18,19,129,00*7F
$GPGSV,4,3,13,22,17,317,27,25,25,066,00,26,25,167,00,31,80,307,15*73
$GPGSV,4,4,13,32,40,036,00*4B
$GLGSV,3,1,10,68,04,113,00,69,42,077,00,70,40,354,16,71,04,317,17*61
$GLGSV,3,2,10,73,47,194,00,79,16,026,00,80,75,054,00,84,00,000,00*64
$GLGSV,3,3,10,85,08,255,17,86,02,303,25*6E
$BDGSV,2,1,8,01,23,105,00,02,60,181,00,03,48,130,00,04,04,095,00*5A
$BDGSV,2,2,8,05,47,229,00,07,65,071,00,09,57,045,00,13,05,180,00*59
$GPGGA,082253,2321.020107,N,08518.464692,E,1,13,,669.4,M,-55.4,M,,*4D
$GPVTG,,T,,M,0.0,N,0.0,K,A*23
$GPRMC,082253,A,2321.020107,N,08518.464692,E,0.0,,040117,0.0,W,A*23
$GPGSA,A,3,01,03,11,14,22,31,,,,,,,4.2,3.1,2.8*39
$GNGSA,A,3,01,03,11,14,22,31,,,,,,,4.2,3.1,2.8*27
$GNGSA,A,3,70,71,85,86,,,,,,,,,4.2,3.1,2.8*20
$BDGSA,A,3,,,,,,,,,,,,,4.2,3.1,2.8*2D
$GPGSV,4,1,13,01,22,300,25,03,02,317,16,10,48,118,00,11,15,275,20*7B
$GPGSV,4,2,13,12,00,000,00,14,48,357,20,16,03,187,00,18,19,129,00*75
$GPGSV,4,3,13,22,17,317,27,25,25,066,00,26,25,167,00,31,80,307,15*73
$GPGSV,4,4,13,32,40,036,00*4B
$GLGSV,3,1,10,68,04,113,00,69,42,077,00,70,40,354,16,71,04,317,16*60
$GLGSV,3,2,10,73,47,194,00,79,16,026,00,80,75,054,00,84,00,000,00*64
$GLGSV,3,3,10,85,08,255,17,86,02,303,24*6F
$BDGSV,2,1,8,01,23,105,00,02,60,181,00,03,48,130,00,04,04,095,00*5A
$BDGSV,2,2,8,05,47,229,00,07,65,071,00,09,57,045,00,13,05,180,00*59
$GPGGA,082253,2321.020107,N,08518.464692,E,1,13,,669.4,M,-55.4,M,,*4D
$GPVTG,,T,,M,0.0,N,0.0,K,A*23
$GPRMC,082253,A,2321.020107,N,08518.464692,E,0.0,,040117,0.0,W,A*23
$GPGSA,A,3,01,03,11,14,22,31,,,,,,,4.2,3.1,2.8*39
$GNGSA,A,3,01,03,11,14,22,31,,,,,,,4.2,3.1,2.8*27
$GNGSA,A,3,70,71,85,86,,,,,,,,,4.2,3.1,2.8*20
$BDGSA,A,3,,,,,,,,,,,,,4.2,3.1,2.8*2D
$GPGSV,4,1,13,01,22,300,23,03,02,317,17,10,48,118,00,11,15,275,17*78
$GPGSV,4,2,13,12,00,000,00,14,48,357,20,16,03,187,00,18,19,129,00*75
$GPGSV,4,3,13,22,17,317,28,25,25,066,00,26,25,167,00,31,80,307,15*7C
$GPGSV,4,4,13,32,40,036,00*4B
$GLGSV,3,1,10,68,04,113,00,69,42,077,00,70,40,354,16,71,04,317,17*61
$GLGSV,3,2,10,73,47,194,00,79,16,026,00,80,75,054,00,84,00,000,00*64
$GLGSV,3,3,10,85,08,255,17,86,02,303,24*6F
$BDGSV,2,1,8,01,23,105,00,02,60,181,00,03,48,130,00,04,04,095,00*5A
$BDGSV,2,2,8,05,47,229,00,07,65,071,00,09,57,045,00,13,05,180,00*59
$GPGGA,082255,2321.020102,N,08518.464700,E,1,13,,669.4,M,-55.4,M,,*44
$GPVTG,,T,,M,0.0,N,0.0,K,A*23
$GPRMC,082255,A,2321.020102,N,08518.464700,E,0.0,,040117,0.0,W,A*2A
$GPGSA,A,3,01,03,11,14,22,31,,,,,,,4.2,3.1,2.8*39
$GNGSA,A,3,01,03,11,14,22,31,,,,,,,4.2,3.1,2.8*27
$GNGSA,A,3,70,71,85,86,,,,,,,,,4.2,3.1,2.8*20
$BDGSA,A,3,,,,,,,,,,,,,4.2,3.1,2.8*2D
$GPGSV,4,1,13,01,22,300,22,03,02,317,18,10,48,118,00,11,15,275,18*79
$GPGSV,4,2,13,12,00,000,00,14,48,357,21,16,03,187,00,18,19,129,00*74
$GPGSV,4,3,13,22,17,317,28,25,25,066,00,26,25,167,00,31,80,307,15*7C
$GPGSV,4,4,13,32,40,036,00*4B
$GLGSV,3,1,10,68,04,113,00,69,42,077,00,70,40,354,13,71,04,317,17*64
$GLGSV,3,2,10,73,47,194,00,79,16,026,00,80,75,054,00,84,00,000,00*64
$GLGSV,3,3,10,85,08,255,17,86,02,303,23*68
$BDGSV,2,1,8,01,23,105,00,02,60,181,00,03,48,130,00,04,04,095,00*5A
$BDGSV,2,2,8,05,47,229,00,07,65,071,00,09,57,045,00,13,05,180,00*59
$GPGGA,082256,2321.020100,N,08518.464702,E,1,13,,669.4,M,-55.4,M,,*47
$GPVTG,,T,,M,0.0,N,0.0,K,A*23
$GPRMC,082256,A,2321.020100,N,08518.464702,E,0.0,,040117,0.0,W,A*29
$GPGSA,A,3,01,03,11,14,22,31,,,,,,,4.2,3.1,2.8*39
$GNGSA,A,3,01,03,11,14,22,31,,,,,,,4.2,3.1,2.8*27
$GNGSA,A,3,70,71,85,86,,,,,,,,,4.2,3.1,2.8*20
$BDGSA,A,3,,,,,,,,,,,,,4.2,3.1,2.8*2D
$GPGSV,4,1,13,01,22,300,23,03,02,317,17,10,48,118,00,11,15,275,18*77
$GPGSV,4,2,13,12,00,000,00,14,48,357,20,16,03,187,00,18,19,129,00*75
$GPGSV,4,3,13,22,17,317,28,25,25,066,00,26,25,167,00,31,80,307,15*7C
$GPGSV,4,4,13,32,40,036,00*4B
$GLGSV,3,1,10,68,04,113,00,69,42,077,00,70,40,354,13,71,04,317,17*64
$GLGSV,3,2,10,73,47,194,00,79,16,026,00,80,75,054,00,84,00,000,00*64
$GLGSV,3,3,10,85,08,255,19,86,02,303,24*61
$BDGSV,2,1,8,01,23,105,00,02,60,181,00,03,48,130,00,04,04,095,00*5A
$BDGSV,2,2,8,05,47,229,00,07,65,071,00,09,57,045,00,13,05,180,00*59
$GPGGA,082257,2321.020099,N,08518.464704,E,1,13,,669.4,M,-55.4,M,,*41
$GPVTG,,T,,M,0.0,N,0.0,K,A*23
$GPRMC,082257,A,2321.020099,N,08518.464704,E,0.0,,040117,0.0,W,A*2F
$GPGSA,A,3,01,03,11,14,22,31,,,,,,,4.2,3.1,2.8*39
$GNGSA,A,3,01,03,11,14,22,31,,,,,,,4.2,3.1,2.8*27
$GNGSA,A,3,70,71,85,86,,,,,,,,,4.2,3.1,2.8*20
$BDGSA,A,3,,,,,,,,,,,,,4.2,3.1,2.8*2D
$GPGSV,4,1,13,01,22,300,23,03,02,317,17,10,48,118,00,11,15,275,20*7C
$GPGSV,4,2,13,12,00,000,00,14,48,357,21,16,03,187,00,18,19,129,00*74
$GPGSV,4,3,13,22,17,317,28,25,25,066,00,26,25,167,00,31,80,307,15*7C
$GPGSV,4,4,13,32,40,036,00*4B
$GLGSV,3,1,10,68,04,113,00,69,42,077,00,70,40,354,13,71,04,317,16*65
$GLGSV,3,2,10,73,47,194,00,79,16,026,00,80,75,054,00,84,00,000,00*64
$GLGSV,3,3,10,85,08,255,19,86,02,303,23*66
$BDGSV,2,1,8,01,23,105,00,02,60,181,00,03,48,130,00,04,04,095,00*5A
$BDGSV,2,2,8,05,47,229,00,07,65,071,00,09,57,045,00,13,05,180,00*59
$GPGGA,082258,2321.020098,N,08518.464706,E,1,13,,669.4,M,-55.4,M,,*4D
$GPVTG,,T,,M,0.0,N,0.0,K,A*23
$GPRMC,082258,A,2321.020098,N,08518.464706,E,0.0,,040117,0.0,W,A*23
$GPGSA,A,3,01,03,11,14,22,31,,,,,,,4.2,3.1,2.8*39
$GNGSA,A,3,01,03,11,14,22,31,,,,,,,4.2,3.1,2.8*27
$GNGSA,A,3,70,71,85,86,,,,,,,,,4.2,3.1,2.8*20
$BDGSA,A,3,,,,,,,,,,,,,4.2,3.1,2.8*2D
$GPGSV,4,1,13,01,22,300,22,03,02,317,17,10,48,118,00,11,15,275,21*7C
$GPGSV,4,2,13,12,00,000,00,14,48,357,22,16,03,187,00,18,19,129,00*77
$GPGSV,4,3,13,22,17,317,27,25,25,066,00,26,25,167,00,31,80,307,15*73
$GPGSV,4,4,13,32,40,036,00*4B
$GLGSV,3,1,10,68,04,113,00,69,42,077,00,70,40,354,13,71,04,317,19*6A
$GLGSV,3,2,10,73,47,194,00,79,16,026,00,80,75,054,00,84,00,000,00*64
$GLGSV,3,3,10,85,08,255,16,86,02,303,23*69
$BDGSV,2,1,8,01,23,105,00,02,60,181,00,03,48,130,00,04,04,095,00*5A
$BDGSV,2,2,8,05,47,229,00,07,65,071,00,09,57,045,00,13,05,180,00*59
$GPGGA,082300,2321.020096,N,08518.464711,E,1,13,,669.4,M,-55.4,M,,*49
$GPVTG,,T,,M,0.0,N,0.0,K,A*23
$GPRMC,082300,A,2321.020096,N,08518.464711,E,0.0,,040117,0.0,W,A*27
$GPGSA,A,3,01,03,11,14,22,31,,,,,,,4.2,3.1,2.8*39
$GNGSA,A,3,01,03,11,14,22,31,,,,,,,4.2,3.1,2.8*27
$GNGSA,A,3,70,71,85,86,,,,,,,,,4.2,3.1,2.8*20
$BDGSA,A,3,,,,,,,,,,,,,4.2,3.1,2.8*2D
$GPGSV,4,1,13,01,22,300,20,03,02,317,15,10,48,118,00,11,15,275,23*7E
$GPGSV,4,2,13,12,00,000,00,14,48,357,21,16,03,187,00,18,19,129,00*74
$GPGSV,4,3,13,22,17,317,27,25,25,066,00,26,25,167,00,31,80,307,15*73
$GPGSV,4,4,13,32,40,036,00*4B
$GLGSV,3,1,10,68,04,113,00,69,42,077,00,70,40,354,13,71,04,317,19*6A
$GLGSV,3,2,10,73,47,194,00,79,16,026,00,80,75,054,00,84,00,000,00*64
$GLGSV,3,3,10,85,08,255,16,86,02,303,24*6E
$BDGSV,2,1,8,01,23,105,00,02,60,181,00,03,48,130,00,04,04,095,00*5A
$BDGSV,2,2,8,05,47,229,00,07,65,071,00,09,57,045,00,13,05,180,00*59
$GPGGA,082301,2321.020096,N,08518.464710,E,1,13,,669.4,M,-55.4,M,,*49
$GPVTG,,T,,M,0.0,N,0.0,K,A*23
$GPRMC,082301,A,2321.020096,N,08518.464710,E,0.0,,040117,0.0,W,A*27
$GPGSA,A,3,01,03,11,14,22,31,,,,,,,4.2,3.1,2.8*39
$GNGSA,A,3,01,03,11,14,22,31,,,,,,,4.2,3.1,2.8*27
$GNGSA,A,3,70,71,85,86,,,,,,,,,4.2,3.1,2.8*20
$BDGSA,A,3,,,,,,,,,,,,,4.2,3.1,2.8*2D
$GPGSV,4,1,13,01,22,300,18,03,02,317,15,10,48,118,00,11,15,275,24*72
$GPGSV,4,2,13,12,00,000,00,14,48,357,21,16,03,187,00,18,19,129,00*74
$GPGSV,4,3,13,22,17,317,28,25,25,066,00,26,25,167,00,31,80,307,15*7C
$GPGSV,4,4,13,32,40,036,00*4B
$GLGSV,3,1,10,68,04,113,00,69,42,077,00,70,40,354,13,71,04,317,19*6A
$GLGSV,3,2,10,73,47,194,00,79,16,026,00,80,75,054,00,84,00,000,00*64
$GLGSV,3,3,10,85,08,255,19,86,02,303,23*66
$BDGSV,2,1,8,01,23,105,00,02,60,181,00,03,48,130,00,04,04,095,00*5A
$BDGSV,2,2,8,05,47,229,00,07,65,071,00,09,57,045,00,13,05,180,00*59
$GPGGA,082302,2321.020094,N,08518.464712,E,1,13,,669.4,M,-55.4,M,,*4A
$GPVTG,,T,,M,0.0,N,0.0,K,A*23
$GPRMC,082302,A,2321.020094,N,08518.464712,E,0.0,,040117,0.0,W,A*24
$GPGSA,A,3,01,03,11,14,22,31,,,,,,,4.2,3.1,2.8*39
$GNGSA,A,3,01,03,11,14,22,31,,,,,,,4.2,3.1,2.8*27
$GNGSA,A,3,70,71,85,86,,,,,,,,,4.2,3.1,2.8*20
$BDGSA,A,3,,,,,,,,,,,,,4.2,3.1,2.8*2D
$GPGSV,4,1,13,01,22,300,18,03,02,317,14,10,48,118,00,11,15,275,24*73
$GPGSV,4,2,13,12,00,000,00,14,48,357,22,16,03,187,00,18,19,129,00*77
$GPGSV,4,3,13,22,17,317,29,25,25,066,00,26,25,167,00,31,80,307,15*7D
$GPGSV,4,4,13,32,40,036,00*4B
$GLGSV,3,1,10,68,04,113,00,69,42,077,00,70,40,354,13,71,04,317,13*60
$GLGSV,3,2,10,73,47,194,00,79,16,026,00,80,75,054,00,84,00,000,00*64
$GLGSV,3,3,10,85,08,255,19,86,02,303,24*61
$BDGSV,2,1,8,01,23,105,00,02,60,181,00,03,48,130,00,04,04,095,00*5A
$BDGSV,2,2,8,05,47,229,00,07,65,071,00,09,57,045,00,13,05,180,00*59
$GPGGA,082303,2321.020089,N,08518.464715,E,1,13,,669.4,M,-55.4,M,,*40
$GPVTG,,T,,M,0.0,N,0.0,K,A*23
$GPRMC,082303,A,2321.020089,N,08518.464715,E,0.0,,040117,0.0,W,A*2E
$GPGSA,A,3,01,03,11,14,22,31,,,,,,,4.2,3.1,2.8*39
$GNGSA,A,3,01,03,11,14,22,31,,,,,,,4.2,3.1,2.8*27
$GNGSA,A,3,70,71,85,86,,,,,,,,,4.2,3.1,2.8*20
$BDGSA,A,3,,,,,,,,,,,,,4.2,3.1,2.8*2D
$GPGSV,4,1,13,01,22,300,20,03,02,317,14,10,48,118,00,11,15,275,24*78
$GPGSV,4,2,13,12,00,000,00,14,48,357,21,16,03,187,00,18,19,129,00*74
$GPGSV,4,3,13,22,17,317,28,25,25,066,00,26,25,167,00,31,80,307,15*7C
$GPGSV,4,4,13,32,40,036,00*4B
$GLGSV,3,1,10,68,04,113,00,69,42,077,00,70,40,354,13,71,04,317,13*60
$GLGSV,3,2,10,73,47,194,00,79,16,026,00,80,75,054,00,84,00,000,00*64
$GLGSV,3,3,10,85,08,255,19,86,02,303,24*61
$BDGSV,2,1,8,01,23,105,00,02,60,181,00,03,48,130,00,04,04,095,00*5A
$BDGSV,2,2,8,05,47,229,00,07,65,071,00,09,57,045,00,13,05,180,00*59
$GPGGA,082304,2321.020083,N,08518.464721,E,1,13,,669.4,M,-55.4,M,,*4A
$GPVTG,,T,,M,0.0,N,0.0,K,A*23
$GPRMC,082304,A,2321.020083,N,08518.464721,E,0.0,,040117,0.0,W,A*24
$GPGSA,A,3,01,03,11,14,22,31,,,,,,,4.2,3.1,2.8*39
$GNGSA,A,3,01,03,11,14,22,31,,,,,,,4.2,3.1,2.8*27
$GNGSA,A,3,70,71,85,86,,,,,,,,,4.2,3.1,2.8*20
$BDGSA,A,3,,,,,,,,,,,,,4.2,3.1,2.8*2D
$GPGSV,4,1,13,01,22,300,20,03,02,317,14,10,48,118,00,11,15,275,23*7F
$GPGSV,4,2,13,12,00,000,00,14,48,357,21,16,03,187,00,18,19,129,00*74
$GPGSV,4,3,13,22,17,317,29,25,25,066,00,26,25,167,00,31,80,307,15*7D
$GPGSV,4,4,13,32,40,036,00*4B
$GLGSV,3,1,10,68,04,113,00,69,42,077,00,70,40,354,13,71,04,317,13*60
$GLGSV,3,2,10,73,47,194,00,79,16,026,00,80,75,054,00,84,00,000,00*64
$GLGSV,3,3,10,85,08,255,20,86,02,303,23*6C
$BDGSV,2,1,8,01,23,105,00,02,60,181,00,03,48,130,00,04,04,095,00*5A
$BDGSV,2,2,8,05,47,229,00,07,65,071,00,09,57,045,00,13,05,180,00*59
$GPGGA,082305,2321.020081,N,08518.464721,E,1,13,,669.4,M,-55.4,M,,*49
$GPVTG,,T,,M,0.0,N,0.0,K,A*23
$GPRMC,082305,A,2321.020081,N,08518.464721,E,0.0,,040117,0.0,W,A*27
$GPGSA,A,3,01,03,11,14,22,31,,,,,,,4.2,3.1,2.8*39
$GNGSA,A,3,01,03,11,14,22,31,,,,,,,4.2,3.1,2.8*27
$GNGSA,A,3,70,71,85,86,,,,,,,,,4.2,3.1,2.8*20
$BDGSA,A,3,,,,,,,,,,,,,4.2,3.1,2.8*2D
$GPGSV,4,1,13,01,22,300,22,03,02,317,14,10,48,118,00,11,15,275,23*7D
$GPGSV,4,2,13,12,00,000,00,14,48,357,19,16,03,187,00,18,19,129,00*7F
$GPGSV,4,3,13,22,17,317,28,25,25,066,00,26,25,167,00,31,80,307,15*7C
$GPGSV,4,4,13,32,40,036,00*4B
$GLGSV,3,1,10,68,04,113,00,69,42,077,00,70,40,354,13,71,04,317,13*60
$GLGSV,3,2,10,73,47,194,00,79,16,026,00,80,75,054,00,84,00,000,00*64
$GLGSV,3,3,10,85,08,255,18,86,02,303,23*67
$BDGSV,2,1,8,01,23,105,00,02,60,181,00,03,48,130,00,04,04,095,00*5A
$BDGSV,2,2,8,05,47,229,00,07,65,071,00,09,57,045,00,13,05,180,00*59
$GPGGA,082306,2321.020083,N,08518.464719,E,1,13,,669.4,M,-55.4,M,,*43
$GPVTG,,T,,M,0.0,N,0.0,K,A*23
$GPRMC,082306,A,2321.020083,N,08518.464719,E,0.0,,040117,0.0,W,A*2D
$GPGSA,A,3,01,03,11,14,22,31,,,,,,,4.2,3.1,2.8*39
$GNGSA,A,3,01,03,11,14,22,31,,,,,,,4.2,3.1,2.8*27
$GNGSA,A,3,70,71,85,86,,,,,,,,,4.2,3.1,2.8*20
$BDGSA,A,3,,,,,,,,,,,,,4.2,3.1,2.8*2D
$GPGSV,4,1,13,01,22,300,20,03,02,317,14,10,48,118,00,11,15,275,23*7F
$GPGSV,4,2,13,12,00,000,00,14,48,357,20,16,03,187,00,18,19,129,00*75
$GPGSV,4,3,13,22,17,317,30,25,25,066,00,26,25,167,00,31,80,307,15*75
$GPGSV,4,4,13,32,40,036,00*4B
$GLGSV,3,1,10,68,04,113,00,69,42,077,00,70,40,354,13,71,04,317,13*60
$GLGSV,3,2,10,73,47,194,00,79,16,026,00,80,75,054,00,84,00,000,00*64
$GLGSV,3,3,10,85,08,255,19,86,02,303,22*67
$BDGSV,2,1,8,01,23,105,00,02,60,181,00,03,48,130,00,04,04,095,00*5A
$BDGSV,2,2,8,05,47,229,00,07,65,071,00,09,57,045,00,13,05,180,00*59
$GPGGA,082307,2321.020084,N,08518.464720,E,1,13,,669.4,M,-55.4,M,,*4F
$GPVTG,,T,,M,0.0,N,0.0,K,A*23
$GPRMC,082307,A,2321.020084,N,08518.464720,E,0.0,,040117,0.0,W,A*21
$GPGSA,A,3,01,03,11,14,22,31,,,,,,,4.2,3.1,2.8*39
$GNGSA,A,3,01,03,11,14,22,31,,,,,,,4.2,3.1,2.8*27
$GNGSA,A,3,70,71,85,86,,,,,,,,,4.2,3.1,2.8*20
$BDGSA,A,3,,,,,,,,,,,,,4.2,3.1,2.8*2D
$GPGSV,4,1,13,01,22,300,20,03,02,317,15,10,48,118,00,11,15,275,25*78
$GPGSV,4,2,13,12,00,000,00,14,48,357,18,16,03,187,00,18,19,129,00*7E
$GPGSV,4,3,13,22,17,317,30,25,25,066,00,26,25,167,00,31,80,307,15*75
$GPGSV,4,4,13,32,40,036,00*4B
$GLGSV,3,1,10,68,04,113,00,69,42,077,00,70,40,354,13,71,04,317,13*60
$GLGSV,3,2,10,73,47,194,00,79,16,026,00,80,75,054,00,84,00,000,00*64
$GLGSV,3,3,10,85,08,255,20,86,02,303,24*6B
$BDGSV,2,1,8,01,23,105,00,02,60,181,00,03,48,130,00,04,04,095,00*5A
$BDGSV,2,2,8,05,47,229,00,07,65,071,00,09,57,045,00,13,05,180,00*59
$GPGGA,082308,2321.020089,N,08518.464716,E,1,13,,669.4,M,-55.4,M,,*48
$GPVTG,,T,,M,0.0,N,0.0,K,A*23
$GPRMC,082308,A,2321.020089,N,08518.464716,E,0.0,,040117,0.0,W,A*26
$GPGSA,A,3,01,03,11,14,22,31,,,,,,,4.2,3.1,2.8*39
$GNGSA,A,3,01,03,11,14,22,31,,,,,,,4.2,3.1,2.8*27
$GNGSA,A,3,70,71,85,86,,,,,,,,,4.2,3.1,2.8*20
$BDGSA,A,3,,,,,,,,,,,,,4.2,3.1,2.8*2D
$GPGSV,4,1,13,01,22,300,21,03,02,317,15,10,48,118,00,11,15,275,24*78
$GPGSV,4,2,13,12,00,000,00,14,48,357,19,16,03,187,00,18,19,129,00*7F
$GPGSV,4,3,13,22,17,317,29,25,25,066,00,26,25,167,00,31,80,307,15*7D
$GPGSV,4,4,13,32,40,036,00*4B
$GLGSV,3,1,10,68,04,113,00,69,42,077,00,70,40,354,13,71,04,317,13*60
$GLGSV,3,2,10,73,47,194,00,79,16,026,00,80,75,054,00,84,00,000,00*64
$GLGSV,3,3,10,85,08,255,19,86,02,303,24*61
$BDGSV,2,1,8,01,23,105,00,02,60,181,00,03,48,130,00,04,04,095,00*5A
$BDGSV,2,2,8,05,47,229,00,07,65,071,00,09,57,045,00,13,05,180,00*59
$GPGGA,082309,2321.020096,N,08518.464711,E,1,13,,669.4,M,-55.4,M,,*40
$GPVTG,,T,,M,0.0,N,0.0,K,A*23
$GPRMC,082309,A,2321.020096,N,08518.464711,E,0.0,,040117,0.0,W,A*2E
$GPGSA,A,3,01,03,11,14,22,31,,,,,,,4.2,3.1,2.8*39
$GNGSA,A,3,01,03,11,14,22,31,,,,,,,4.2,3.1,2.8*27
$GNGSA,A,3,70,71,85,86,,,,,,,,,4.2,3.1,2.8*20
$BDGSA,A,3,,,,,,,,,,,,,4.2,3.1,2.8*2D
$GPGSV,4,1,13,01,22,300,21,03,02,317,16,10,48,118,00,11,15,275,22*7D
$GPGSV,4,2,13,12,00,000,00,14,48,357,21,16,03,187,00,18,19,129,00*74
$GPGSV,4,3,13,22,17,317,27,25,25,066,00,26,25,167,00,31,80,307,15*73
$GPGSV,4,4,13,32,40,036,00*4B
$GLGSV,3,1,10,68,04,113,00,69,42,077,00,70,40,354,17,71,04,317,13*64
$GLGSV,3,2,10,73,47,194,00,79,16,026,00,80,75,054,00,84,00,000,00*64
$GLGSV,3,3,10,85,08,255,22,86,02,303,24*69
$BDGSV,2,1,8,01,23,105,00,02,60,181,00,03,48,130,00,04,04,095,00*5A
$BDGSV,2,2,8,05,47,229,00,07,65,071,00,09,57,045,00,13,05,180,00*59
$GPGGA,082310,2321.020096,N,08518.464713,E,1,13,,669.4,M,-55.4,M,,*4A
$GPVTG,,T,,M,0.0,N,0.0,K,A*23
$GPRMC,082310,A,2321.020096,N,08518.464713,E,0.0,,040117,0.0,W,A*24
$GPGSA,A,3,01,03,11,14,22,31,,,,,,,4.2,3.1,2.8*39
$GNGSA,A,3,01,03,11,14,22,31,,,,,,,4.2,3.1,2.8*27
$GNGSA,A,3,70,71,85,86,,,,,,,,,4.2,3.1,2.8*20
$BDGSA,A,3,,,,,,,,,,,,,4.2,3.1,2.8*2D
$GPGSV,4,1,13,01,22,300,22,03,02,317,16,10,48,118,00,11,15,275,24*78
$GPGSV,4,2,13,12,00,000,00,14,48,357,20,16,03,187,00,18,19,129,00*75
$GPGSV,4,3,13,22,17,317,28,25,25,066,00,26,25,167,00,31,80,307,15*7C
$GPGSV,4,4,13,32,40,036,00*4B
$GLGSV,3,1,10,68,04,113,00,69,42,077,00,70,40,354,17,71,04,317,13*64
$GLGSV,3,2,10,73,47,194,00,79,16,026,00,80,75,054,00,84,00,000,00*64
$GLGSV,3,3,10,85,08,255,19,86,02,303,25*60
$BDGSV,2,1,8,01,23,105,00,02,60,181,00,03,48,130,00,04,04,095,00*5A
$BDGSV,2,2,8,05,47,229,00,07,65,071,00,09,57,045,00,13,05,180,00*59
$GPGGA,082311,2321.020098,N,08518.464714,E,1,13,,669.4,M,-55.4,M,,*42
$GPVTG,,T,,M,0.0,N,0.0,K,A*23
$GPRMC,082311,A,2321.020098,N,08518.464714,E,0.0,,040117,0.0,W,A*2C
$GPGSA,A,3,01,03,11,14,22,31,,,,,,,4.2,3.1,2.8*39
$GNGSA,A,3,01,03,11,14,22,31,,,,,,,4.2,3.1,2.8*27
$GNGSA,A,3,70,71,85,86,,,,,,,,,4.2,3.1,2.8*20
$BDGSA,A,3,,,,,,,,,,,,,4.2,3.1,2.8*2D
$GPGSV,4,1,13,01,22,300,20,03,02,317,16,10,48,118,00,11,15,275,22*7C
$GPGSV,4,2,13,12,00,000,00,14,48,357,21,16,03,187,00,18,19,129,00*74
$GPGSV,4,3,13,22,17,317,28,25,25,066,00,26,25,167,00,31,80,307,15*7C
$GPGSV,4,4,13,32,40,036,00*4B
$GLGSV,3,1,10,68,04,113,00,69,42,077,00,70,40,354,17,71,04,317,13*64
$GLGSV,3,2,10,73,47,194,00,79,16,026,00,80,75,054,00,84,00,000,00*64
$GLGSV,3,3,10,85,08,255,17,86,02,303,25*6E
$BDGSV,2,1,8,01,23,105,00,02,60,181,00,03,48,130,00,04,04,095,00*5A
$BDGSV,2,2,8,05,47,229,00,07,65,071,00,09,57,045,00,13,05,180,00*59
$GPGGA,082312,2321.020097,N,08518.464715,E,1,13,,669.4,M,-55.4,M,,*4F
$GPVTG,,T,,M,0.0,N,0.0,K,A*23
$GPRMC,082312,A,2321.020097,N,08518.464715,E,0.0,,040117,0.0,W,A*21
$GPGSA,A,3,01,03,11,14,22,31,,,,,,,2.2,1.6,1.4*35
$GNGSA,A,3,01,03,11,14,22,31,,,,,,,2.2,1.6,1.4*2B
$GNGSA,A,3,70,71,79,85,86,,,,,,,,2.2,1.6,1.4*22
$BDGSA,A,3,,,,,,,,,,,,,2.2,1.6,1.4*21
$GPGSV,4,1,13,01,22,300,19,03,02,317,16,10,48,118,00,11,15,275,22*76
$GPGSV,4,2,13,12,00,000,00,14,48,357,20,16,03,187,00,18,19,129,00*75
$GPGSV,4,3,13,22,17,317,28,25,25,066,00,26,25,167,00,31,80,307,15*7C
$GPGSV,4,4,13,32,40,036,00*4B
$GLGSV,3,1,10,68,04,113,00,69,42,077,00,70,40,354,17,71,04,317,15*62
$GLGSV,3,2,10,73,47,194,00,79,16,026,14,80,75,054,00,84,00,000,00*61
$GLGSV,3,3,10,85,08,255,21,86,02,303,26*68
$BDGSV,2,1,8,01,23,105,00,02,60,181,00,03,48,130,00,04,04,095,00*5A
$BDGSV,2,2,8,05,47,229,00,07,65,071,00,09,57,045,00,13,05,180,00*59
$GPGGA,082313,2321.020092,N,08518.464717,E,1,13,,669.4,M,-55.4,M,,*49
$GPVTG,,T,,M,0.0,N,0.0,K,A*23
$GPRMC,082313,A,2321.020092,N,08518.464717,E,0.0,,040117,0.0,W,A*27
$GPGSA,A,3,01,03,11,14,22,31,,,,,,,2.2,1.6,1.4*35
$GNGSA,A,3,01,03,11,14,22,31,,,,,,,2.2,1.6,1.4*2B
$GNGSA,A,3,70,71,79,85,86,,,,,,,,2.2,1.6,1.4*22
$BDGSA,A,3,,,,,,,,,,,,,2.2,1.6,1.4*21
$GPGSV,4,1,13,01,22,300,22,03,02,317,14,10,48,118,00,11,15,275,22*7C
$GPGSV,4,2,13,12,00,000,00,14,48,357,19,16,03,187,00,18,19,129,00*7F
$GPGSV,4,3,13,22,17,317,28,25,25,066,00,26,25,167,00,31,80,307,15*7C
$GPGSV,4,4,13,32,40,036,00*4B
$GLGSV,3,1,10,68,04,113,00,69,42,077,00,70,40,354,17,71,04,317,15*62
$GLGSV,3,2,10,73,47,194,00,79,16,026,14,80,75,054,00,84,00,000,00*61
$GLGSV,3,3,10,85,08,255,23,86,02,303,25*69
$BDGSV,2,1,8,01,23,105,00,02,60,181,00,03,48,130,00,04,04,095,00*5A
$BDGSV,2,2,8,05,47,229,00,07,65,071,00,09,57,045,00,13,05,180,00*59
$GPGGA,082314,2321.020089,N,08518.464721,E,1,13,,669.4,M,-55.4,M,,*41
$GPVTG,,T,,M,0.0,N,0.0,K,A*23
$GPRMC,082314,A,2321.020089,N,08518.464721,E,0.0,,040117,0.0,W,A*2F
$GPGSA,A,3,01,03,11,14,22,,,,,,,,2.4,1.7,1.7*33
$GNGSA,A,3,01,03,11,14,22,,,,,,,,2.4,1.7,1.7*2D
$GNGSA,A,3,70,71,79,85,86,,,,,,,,2.4,1.7,1.7*26
$BDGSA,A,3,,,,,,,,,,,,,2.4,1.7,1.7*25
$GPGSV,4,1,13,01,22,300,23,03,02,317,14,10,48,118,00,11,15,275,20*7F
$GPGSV,4,2,13,12,00,000,00,14,48,357,19,16,03,187,00,18,19,129,00*7F
$GPGSV,4,3,13,22,17,317,28,25,25,066,00,26,25,167,00,31,80,307,00*78
$GPGSV,4,4,13,32,40,036,00*4B
$GLGSV,3,1,10,68,04,113,00,69,42,077,00,70,40,354,14,71,04,317,15*61
$GLGSV,3,2,10,73,47,194,00,79,16,026,14,80,75,054,00,84,00,000,00*61
$GLGSV,3,3,10,85,08,255,22,86,02,303,25*68
$BDGSV,2,1,8,01,23,105,00,02,60,181,00,03,48,130,00,04,04,095,00*5A
$BDGSV,2,2,8,05,47,229,00,07,65,071,00,09,57,045,00,13,05,180,00*59
$GPGGA,082315,2321.020093,N,08518.464695,E,1,13,,669.4,M,-55.4,M,,*45
$GPVTG,,T,,M,0.0,N,0.0,K,A*23
$GPRMC,082315,A,2321.020093,N,08518.464695,E,0.0,,040117,0.0,W,A*2B
$GPGSA,A,3,01,03,11,14,22,,,,,,,,2.4,1.7,1.7*33
$GNGSA,A,3,01,03,11,14,22,,,,,,,,2.4,1.7,1.7*2D
$GNGSA,A,3,70,71,79,85,86,,,,,,,,2.4,1.7,1.7*26
$BDGSA,A,3,,,,,,,,,,,,,2.4,1.7,1.7*25
$GPGSV,4,1,13,01,22,300,22,03,02,317,14,10,48,118,00,11,15,275,21*7F
$GPGSV,4,2,13,12,00,000,00,14,48,357,19,16,03,187,00,18,19,129,00*7F
$GPGSV,4,3,13,22,17,317,27,25,25,066,00,26,25,167,00,31,80,307,00*77
$GPGSV,4,4,13,32,40,036,00*4B
$GLGSV,3,1,10,68,04,113,00,69,42,077,00,70,40,354,14,71,04,317,15*61
$GLGSV,3,2,10,73,47,194,00,79,16,026,13,80,75,054,00,84,00,000,00*66
$GLGSV,3,3,10,85,08,255,21,86,02,303,25*6B
$BDGSV,2,1,8,01,23,105,00,02,60,181,00,03,48,130,00,04,04,095,00*5A
$BDGSV,2,2,8,05,47,229,00,07,65,071,00,09,57,045,00,13,05,180,00*59
$GPGGA,082316,2321.020091,N,08518.464686,E,1,13,,669.4,M,-55.4,M,,*46
$GPVTG,,T,,M,0.0,N,0.0,K,A*23
$GPRMC,082316,A,2321.020091,N,08518.464686,E,0.0,,040117,0.0,W,A*28
$GPGSA,A,3,01,03,11,14,22,,,,,,,,2.4,1.7,1.7*33
$GNGSA,A,3,01,03,11,14,22,,,,,,,,2.4,1.7,1.7*2D
$GNGSA,A,3,70,71,79,85,86,,,,,,,,2.4,1.7,1.7*26
$BDGSA,A,3,,,,,,,,,,,,,2.4,1.7,1.7*25
$GPGSV,4,1,13,01,22,300,22,03,02,317,15,10,48,118,00,11,15,275,21*7E
$GPGSV,4,2,13,12,00,000,00,14,48,357,19,16,03,187,00,18,19,129,00*7F
$GPGSV,4,3,13,22,17,317,28,25,25,066,00,26,25,167,00,31,80,307,00*78
$GPGSV,4,4,13,32,40,036,00*4B
$GLGSV,3,1,10,68,04,113,00,69,42,077,00,70,40,354,14,71,04,317,15*61
$GLGSV,3,2,10,73,47,194,00,79,16,026,13,80,75,054,00,84,00,000,00*66
$GLGSV,3,3,10,85,08,255,20,86,02,303,25*6A
$BDGSV,2,1,8,01,23,105,00,02,60,181,00,03,48,130,00,04,04,095,00*5A
$BDGSV,2,2,8,05,47,229,00,07,65,071,00,09,57,045,00,13,05,180,00*59
$GPGGA,082317,2321.020093,N,08518.464682,E,1,13,,669.4,M,-55.4,M,,*41
$GPVTG,,T,,M,0.0,N,0.0,K,A*23
$GPRMC,082317,A,2321.020093,N,08518.464682,E,0.0,,040117,0.0,W,A*2F
$GPGSA,A,3,01,03,11,14,22,,,,,,,,2.4,1.7,1.7*33
$GNGSA,A,3,01,03,11,14,22,,,,,,,,2.4,1.7,1.7*2D
$GNGSA,A,3,70,71,79,85,86,,,,,,,,2.4,1.7,1.7*26
$BDGSA,A,3,,,,,,,,,,,,,2.4,1.7,1.7*25
$GPGSV,4,1,13,01,22,300,23,03,02,317,15,10,48,118,00,11,15,275,21*7F
$GPGSV,4,2,13,12,00,000,00,14,48,357,20,16,03,187,00,18,19,129,00*75
$GPGSV,4,3,13,22,17,317,29,25,25,066,00,26,25,167,00,31,80,307,00*79
$GPGSV,4,4,13,32,40,036,00*4B
$GLGSV,3,1,10,68,04,113,00,69,42,077,00,70,40,354,14,71,04,317,15*61
$GLGSV,3,2,10,73,47,194,00,79,16,026,13,80,75,054,00,84,00,000,00*66
$GLGSV,3,3,10,85,08,255,21,86,02,303,25*6B
$BDGSV,2,1,8,01,23,105,00,02,60,181,00,03,48,130,00,04,04,095,00*5A
$BDGSV,2,2,8,05,47,229,00,07,65,070,00,09,57,045,00,13,05,180,00*58
$GPGGA,082318,2321.020101,N,08518.464674,E,1,13,,669.4,M,-55.4,M,,*4D
$GPVTG,,T,,M,0.0,N,0.0,K,A*23
$GPRMC,082318,A,2321.020101,N,08518.464674,E,0.0,,040117,0.0,W,A*23
$GPGSA,A,3,01,03,11,14,22,,,,,,,,2.4,1.7,1.7*33
$GNGSA,A,3,01,03,11,14,22,,,,,,,,2.4,1.7,1.7*2D
$GNGSA,A,3,70,71,79,85,86,,,,,,,,2.4,1.7,1.7*26
$BDGSA,A,3,,,,,,,,,,,,,2.4,1.7,1.7*25
$GPGSV,4,1,13,01,22,300,22,03,02,317,16,10,48,118,00,11,15,275,22*7E
$GPGSV,4,2,13,12,00,000,00,14,48,357,20,16,03,187,00,18,19,129,00*75
$GPGSV,4,3,13,22,17,317,29,25,25,066,00,26,25,167,00,31,80,307,00*79
$GPGSV,4,4,13,32,40,036,00*4B
$GLGSV,3,1,10,68,04,113,00,69,42,077,00,70,40,354,14,71,04,317,15*61
$GLGSV,3,2,10,73,47,194,00,79,16,026,13,80,75,054,00,84,00,000,00*66
$GLGSV,3,3,10,85,08,255,22,86,02,303,26*6B
$BDGSV,2,1,8,01,23,105,00,02,60,181,00,03,48,130,00,04,04,095,00*5A
$BDGSV,2,2,8,05,47,229,00,07,65,070,00,09,57,045,00,13,05,180,00*58
$GPGGA,082319,2321.020106,N,08518.464668,E,1,13,,669.4,M,-55.4,M,,*46
$GPVTG,,T,,M,0.0,N,0.0,K,A*23
$GPRMC,082319,A,2321.020106,N,08518.464668,E,0.0,,040117,0.0,W,A*28
$GPGSA,A,3,01,03,11,14,22,,,,,,,,2.4,1.7,1.7*33
$GNGSA,A,3,01,03,11,14,22,,,,,,,,2.4,1.7,1.7*2D
$GNGSA,A,3,70,71,79,85,86,,,,,,,,2.4,1.7,1.7*26
$BDGSA,A,3,,,,,,,,,,,,,2.4,1.7,1.7*25
$GPGSV,4,1,13,01,22,300,25,03,02,317,17,10,48,118,00,11,15,275,21*7B
$GPGSV,4,2,13,12,00,000,00,14,48,357,19,16,03,187,00,18,19,129,00*7F
$GPGSV,4,3,13,22,17,317,29,25,25,066,00,26,25,167,00,31,80,307,00*79
$GPGSV,4,4,13,32,40,036,00*4B
$GLGSV,3,1,10,68,04,113,00,69,42,077,00,70,40,354,14,71,04,317,12*66
$GLGSV,3,2,10,73,47,194,00,79,16,026,13,80,75,054,00,84,00,000,00*66
$GLGSV,3,3,10,85,08,255,22,86,02,303,24*69
$BDGSV,2,1,8,01,23,105,00,02,60,181,00,03,48,130,00,04,04,095,00*5A
$BDGSV,2,2,8,05,47,229,00,07,65,070,00,09,57,045,00,13,05,180,00*58
$GPGGA,082320,2321.020110,N,08518.464665,E,1,13,,669.4,M,-55.4,M,,*46
$GPVTG,,T,,M,0.0,N,0.0,K,A*23
$GPRMC,082320,A,2321.020110,N,08518.464665,E,0.0,,040117,0.0,W,A*28
$GPGSA,A,3,01,03,11,14,22,,,,,,,,2.4,1.7,1.7*33
$GNGSA,A,3,01,03,11,14,22,,,,,,,,2.4,1.7,1.7*2D
$GNGSA,A,3,70,71,79,85,86,,,,,,,,2.4,1.7,1.7*26
$BDGSA,A,3,,,,,,,,,,,,,2.4,1.7,1.7*25
$GPGSV,4,1,13,01,22,300,23,03,02,317,17,10,48,118,00,11,15,275,19*76
$GPGSV,4,2,13,12,00,000,00,14,48,357,19,16,03,187,00,18,19,129,00*7F
$GPGSV,4,3,13,22,17,317,30,25,25,066,00,26,25,167,00,31,80,307,00*71
$GPGSV,4,4,13,32,40,036,00*4B
$GLGSV,3,1,10,68,04,113,00,69,42,077,00,70,40,354,14,71,04,317,12*66
$GLGSV,3,2,10,73,47,194,00,79,16,026,13,80,75,054,00,84,00,000,00*66
$GLGSV,3,3,10,85,08,255,22,86,02,303,25*68
$BDGSV,2,1,8,01,23,105,00,02,60,181,00,03,48,130,00,04,04,095,00*5A
$BDGSV,2,2,8,05,47,229,00,07,65,070,00,09,57,045,00,13,05,180,00*58
$GPGGA,082321,2321.020114,N,08518.464660,E,1,13,,669.4,M,-55.4,M,,*46
$GPVTG,,T,,M,0.0,N,0.0,K,A*23
$GPRMC,082321,A,2321.020114,N,08518.464660,E,0.0,,040117,0.0,W,A*28
$GPGSA,A,3,01,03,11,14,22,,,,,,,,2.4,1.7,1.7*33
$GNGSA,A,3,01,03,11,14,22,,,,,,,,2.4,1.7,1.7*2D
$GNGSA,A,3,70,71,79,85,86,,,,,,,,2.4,1.7,1.7*26
$BDGSA,A,3,,,,,,,,,,,,,2.4,1.7,1.7*25
$GPGSV,4,1,13,01,22,300,24,03,02,317,18,10,48,118,00,11,15,275,20*74
$GPGSV,4,2,13,12,00,000,00,14,48,357,19,16,03,187,00,18,19,129,00*7F
$GPGSV,4,3,13,22,17,317,29,25,25,066,00,26,25,167,00,31,80,307,00*79
$GPGSV,4,4,13,32,40,036,00*4B
$GLGSV,3,1,10,68,04,113,00,69,42,077,00,70,40,354,14,71,04,317,12*66
$GLGSV,3,2,10,73,47,194,00,79,16,026,13,80,75,054,00,84,00,000,00*66
$GLGSV,3,3,10,85,08,255,21,86,02,303,26*68
$BDGSV,2,1,8,01,23,105,00,02,60,181,00,03,48,130,00,04,04,095,00*5A
$BDGSV,2,2,8,05,47,229,00,07,65,070,00,09,57,045,00,13,05,180,00*58
$GPGGA,082322,2321.020115,N,08518.464661,E,1,13,,669.4,M,-55.4,M,,*45
$GPVTG,,T,,M,0.0,N,0.0,K,A*23
$GPRMC,082322,A,2321.020115,N,08518.464661,E,0.0,,040117,0.0,W,A*2B
$GPGSA,A,3,01,03,11,14,22,,,,,,,,2.4,1.7,1.7*33
$GNGSA,A,3,01,03,11,14,22,,,,,,,,2.4,1.7,1.7*2D
$GNGSA,A,3,70,71,79,85,86,,,,,,,,2.4,1.7,1.7*26
$BDGSA,A,3,,,,,,,,,,,,,2.4,1.7,1.7*25
$GPGSV,4,1,13,01,22,300,24,03,02,317,18,10,48,118,00,11,15,275,19*7E
$GPGSV,4,2,13,12,00,000,00,14,48,357,20,16,03,187,00,18,19,129,00*75
$GPGSV,4,3,13,22,17,317,29,25,25,066,00,26,25,167,00,31,80,307,00*79
$GPGSV,4,4,13,32,40,036,00*4B
$GLGSV,3,1,10,68,04,113,00,69,42,077,00,70,40,354,16,71,04,317,12*64
$GLGSV,3,2,10,73,47,194,00,79,16,026,13,80,75,054,00,84,00,000,00*66
$GLGSV,3,3,10,85,08,255,22,86,02,303,25*68
$BDGSV,2,1,8,01,23,105,00,02,60,181,00,03,48,130,00,04,04,095,00*5A
$BDGSV,2,2,8,05,47,229,00,07,65,070,00,09,57,045,00,13,05,180,00*58
$GPGGA,082323,2321.020120,N,08518.464656,E,1,13,,669.4,M,-55.4,M,,*46
$GPVTG,,T,,M,0.0,N,0.0,K,A*23
$GPRMC,082323,A,2321.020120,N,08518.464656,E,0.0,,040117,0.0,W,A*28
$GPGSA,A,3,01,03,11,14,22,,,,,,,,2.4,1.7,1.7*33
$GNGSA,A,3,01,03,11,14,22,,,,,,,,2.4,1.7,1.7*2D
$GNGSA,A,3,70,71,79,85,86,,,,,,,,2.4,1.7,1.7*26
$BDGSA,A,3,,,,,,,,,,,,,2.4,1.7,1.7*25
$GPGSV,4,1,13,01,22,300,23,03,02,317,19,10,48,118,00,11,15,275,19*78
$GPGSV,4,2,13,12,00,000,00,14,48,357,20,16,03,187,00,18,19,129,00*75
$GPGSV,4,3,13,22,17,317,29,25,25,066,00,26,25,167,00,31,80,307,00*79
$GPGSV,4,4,13,32,40,036,00*4B
$GLGSV,3,1,10,68,04,113,00,69,42,077,00,70,40,354,16,71,04,317,12*64
$GLGSV,3,2,10,73,47,194,00,79,16,026,13,80,75,054,00,84,00,000,00*66
$GLGSV,3,3,10,85,08,255,21,86,02,303,26*68
$BDGSV,2,1,8,01,23,105,00,02,60,181,00,03,48,130,00,04,04,095,00*5A
$BDGSV,2,2,8,05,47,229,00,07,65,070,00,09,57,045,00,13,05,180,00*58
$GPGGA,082324,2321.020127,N,08518.464649,E,1,13,,669.4,M,-55.4,M,,*48
$GPVTG,,T,,M,0.0,N,0.0,K,A*23
$GPRMC,082324,A,2321.020127,N,08518.464649,E,0.0,,040117,0.0,W,A*26
$GPGSA,A,3,01,03,11,14,22,,,,,,,,2.4,1.7,1.7*33
$GNGSA,A,3,01,03,11,14,22,,,,,,,,2.4,1.7,1.7*2D
$GNGSA,A,3,70,71,79,85,86,,,,,,,,2.4,1.7,1.7*26
$BDGSA,A,3,,,,,,,,,,,,,2.4,1.7,1.7*25
$GPGSV,4,1,13,01,22,300,22,03,02,317,18,10,48,118,00,11,15,275,21*73
$GPGSV,4,2,13,12,00,000,00,14,48,357,18,16,03,187,00,18,19,129,00*7E
$GPGSV,4,3,13,22,17,317,29,25,25,066,00,26,25,167,00,31,80,307,00*79
$GPGSV,4,4,13,32,40,036,00*4B
$GLGSV,3,1,10,68,04,113,00,69,42,077,00,70,40,354,16,71,04,317,12*64
$GLGSV,3,2,10,73,47,194,00,79,16,026,13,80,75,054,00,84,00,000,00*66
$GLGSV,3,3,10,85,08,255,19,86,02,303,26*63
$BDGSV,2,1,8,01,23,105,00,02,60,181,00,03,48,130,00,04,04,095,00*5A
$BDGSV,2,2,8,05,47,229,00,07,65,070,00,09,57,045,00,13,05,180,00*58
$GPGGA,082325,2321.020135,N,08518.464642,E,1,13,,669.4,M,-55.4,M,,*41
$GPVTG,,T,,M,0.0,N,0.0,K,A*23
$GPRMC,082325,A,2321.020135,N,08518.464642,E,0.0,,040117,0.0,W,A*2F
$GPGSA,A,3,01,03,11,14,22,,,,,,,,2.4,1.7,1.7*33
$GNGSA,A,3,01,03,11,14,22,,,,,,,,2.4,1.7,1.7*2D
$GNGSA,A,3,70,71,79,85,86,,,,,,,,2.4,1.7,1.7*26
$BDGSA,A,3,,,,,,,,,,,,,2.4,1.7,1.7*25
$GPGSV,4,1,13,01,22,300,23,03,02,317,17,10,48,118,00,11,15,275,20*7C
$GPGSV,4,2,13,12,00,000,00,14,48,357,19,16,03,187,00,18,19,129,00*7F
$GPGSV,4,3,13,22,17,317,29,25,25,066,00,26,25,167,00,31,80,307,00*79
$GPGSV,4,4,13,32,40,036,00*4B
$GLGSV,3,1,10,68,04,113,00,69,42,077,00,70,40,354,15,71,04,317,12*67
$GLGSV,3,2,10,73,47,194,00,79,16,026,13,80,75,054,00,84,00,000,00*66
$GLGSV,3,3,10,85,08,255,23,86,02,303,26*6A
$BDGSV,2,1,8,01,23,105,00,02,60,181,00,03,48,130,00,04,04,095,00*5A
$BDGSV,2,2,8,05,47,229,00,07,65,070,00,09,57,045,00,13,05,180,00*58
$GPGGA,082326,2321.020138,N,08518.464639,E,1,13,,669.4,M,-55.4,M,,*43
$GPVTG,,T,,M,0.0,N,0.0,K,A*23
$GPRMC,082326,A,2321.020138,N,08518.464639,E,0.0,,040117,0.0,W,A*2D
$GPGSA,A,3,01,03,11,14,22,32,,,,,,,2.3,1.5,1.7*37
$GNGSA,A,3,01,03,11,14,22,32,,,,,,,2.3,1.5,1.7*29
$GNGSA,A,3,70,71,79,85,86,,,,,,,,2.3,1.5,1.7*23
$BDGSA,A,3,,,,,,,,,,,,,2.3,1.5,1.7*20
$GPGSV,4,1,13,01,22,300,24,03,02,317,18,10,48,118,00,11,15,275,20*74
$GPGSV,4,2,13,12,00,000,00,14,48,357,21,16,03,187,00,18,19,129,00*74
$GPGSV,4,3,13,22,17,317,29,25,25,066,00,26,25,167,00,31,80,307,00*79
$GPGSV,4,4,13,32,40,036,16*4C
$GLGSV,3,1,10,68,04,113,00,69,42,077,00,70,40,354,15,71,04,317,12*67
$GLGSV,3,2,10,73,47,194,00,79,16,026,13,80,75,054,00,84,00,000,00*66
$GLGSV,3,3,10,85,08,255,24,86,02,303,26*6D
$BDGSV,2,1,8,01,23,105,00,02,60,181,00,03,48,130,00,04,04,095,00*5A
$BDGSV,2,2,8,05,47,229,00,07,65,070,00,09,57,045,00,13,05,180,00*58
$GPGGA,082326,2321.020138,N,08518.464639,E,1,13,,669.4,M,-55.4,M,,*43
$GPVTG,,T,,M,0.0,N,0.0,K,A*23
$GPRMC,082326,A,2321.020138,N,08518.464639,E,0.0,,040117,0.0,W,A*2D
$GPGSA,A,3,01,03,11,14,22,32,,,,,,,2.3,1.5,1.7*37
$GNGSA,A,3,01,03,11,14,22,32,,,,,,,2.3,1.5,1.7*29
$GNGSA,A,3,70,71,79,85,86,,,,,,,,2.3,1.5,1.7*23
$BDGSA,A,3,,,,,,,,,,,,,2.3,1.5,1.7*20
$GPGSV,4,1,13,01,22,300,24,03,02,317,18,10,48,118,00,11,15,275,20*74
$GPGSV,4,2,13,12,00,000,00,14,48,357,21,16,03,187,00,18,19,129,00*74
$GPGSV,4,3,13,22,17,317,29,25,25,066,00,26,25,167,00,31,80,307,00*79
$GPGSV,4,4,13,32,40,036,15*4F
$GLGSV,3,1,10,68,04,113,00,69,42,077,00,70,40,354,15,71,04,317,12*67
$GLGSV,3,2,10,73,47,194,00,79,16,026,13,80,75,054,00,84,00,000,00*66
$GLGSV,3,3,10,85,08,255,23,86,02,303,26*6A
$BDGSV,2,1,8,01,23,105,00,02,60,181,00,03,48,130,00,04,04,095,00*5A
$BDGSV,2,2,8,05,47,229,00,07,65,070,00,09,57,045,00,13,05,180,00*58
$GPGGA,082328,2321.020144,N,08518.464633,E,1,13,,669.4,M,-55.4,M,,*4C
$GPVTG,,T,,M,0.0,N,0.0,K,A*23
$GPRMC,082328,A,2321.020144,N,08518.464633,E,0.0,,040117,0.0,W,A*22
$GPGSA,A,3,01,03,11,14,22,32,,,,,,,2.3,1.5,1.7*37
$GNGSA,A,3,01,03,11,14,22,32,,,,,,,2.3,1.5,1.7*29
$GNGSA,A,3,70,71,79,85,86,,,,,,,,2.3,1.5,1.7*23
$BDGSA,A,3,,,,,,,,,,,,,2.3,1.5,1.7*20
$GPGSV,4,1,13,01,22,300,23,03,02,317,19,10,48,118,00,11,15,275,20*72
$GPGSV,4,2,13,12,00,000,00,14,48,357,20,16,03,187,00,18,19,129,00*75
$GPGSV,4,3,13,22,17,317,29,25,25,066,00,26,25,167,00,31,80,307,00*79
$GPGSV,4,4,13,32,40,036,15*4F
$GLGSV,3,1,10,68,04,113,00,69,42,077,00,70,40,354,15,71,04,317,12*67
$GLGSV,3,2,10,73,47,194,00,79,16,026,13,80,75,054,00,84,00,000,00*66
$GLGSV,3,3,10,85,08,255,22,86,02,303,26*6B
$BDGSV,2,1,8,01,23,105,00,02,60,181,00,03,48,130,00,04,04,095,00*5A
$BDGSV,2,2,8,05,47,229,00,07,65,070,00,09,57,045,00,13,05,180,00*58
$GPGGA,082329,2321.020145,N,08518.464631,E,1,13,,669.4,M,-55.4,M,,*4E
$GPVTG,,T,,M,0.0,N,0.0,K,A*23
$GPRMC,082329,A,2321.020145,N,08518.464631,E,0.0,,040117,0.0,W,A*20
$GPGSA,A,3,01,03,11,14,22,32,,,,,,,2.3,1.5,1.7*37
$GNGSA,A,3,01,03,11,14,22,32,,,,,,,2.3,1.5,1.7*29
$GNGSA,A,3,70,71,79,85,86,,,,,,,,2.3,1.5,1.7*23
$BDGSA,A,3,,,,,,,,,,,,,2.3,1.5,1.7*20
$GPGSV,4,1,13,01,22,300,24,03,02,317,18,10,48,118,00,11,15,275,20*74
$GPGSV,4,2,13,12,00,000,00,14,48,357,20,16,03,187,00,18,19,129,00*75
$GPGSV,4,3,13,22,17,317,29,25,25,066,00,26,25,167,00,31,80,307,00*79
$GPGSV,4,4,13,32,40,036,15*4F
$GLGSV,3,1,10,68,04,113,00,69,42,077,00,70,40,354,15,71,04,317,12*67
$GLGSV,3,2,10,73,47,194,00,79,16,026,13,80,75,054,00,84,00,000,00*66
$GLGSV,3,3,10,85,08,255,22,86,02,303,25*68
$BDGSV,2,1,8,01,23,105,00,02,60,181,00,03,48,130,00,04,04,095,00*5A
$BDGSV,2,2,8,05,47,229,00,07,65,070,00,09,57,045,00,13,05,180,00*58
$GPGGA,082330,2321.020140,N,08518.464635,E,1,13,,669.4,M,-55.4,M,,*47
$GPVTG,,T,,M,0.0,N,0.0,K,A*23
$GPRMC,082330,A,2321.020140,N,08518.464635,E,0.0,,040117,0.0,W,A*29
$GPGSA,A,3,01,03,11,14,22,32,,,,,,,2.3,1.5,1.7*37
$GNGSA,A,3,01,03,11,14,22,32,,,,,,,2.3,1.5,1.7*29
$GNGSA,A,3,70,71,79,85,86,,,,,,,,2.3,1.5,1.7*23
$BDGSA,A,3,,,,,,,,,,,,,2.3,1.5,1.7*20
$GPGSV,4,1,13,01,22,300,24,03,02,317,19,10,48,118,00,11,15,275,21*74
$GPGSV,4,2,13,12,00,000,00,14,48,357,21,16,03,187,00,18,19,129,00*74
$GPGSV,4,3,13,22,17,317,28,25,25,066,00,26,25,167,00,31,80,307,00*78
$GPGSV,4,4,13,32,40,036,15*4F
$GLGSV,3,1,10,68,04,113,00,69,42,077,00,70,40,354,15,71,04,317,12*67
$GLGSV,3,2,10,73,47,194,00,79,16,026,13,80,75,054,00,84,00,000,00*66
$GLGSV,3,3,10,85,08,255,21,86,02,303,26*68
$BDGSV,2,1,8,01,23,105,00,02,60,181,00,03,48,130,00,04,04,095,00*5A
$BDGSV,2,2,8,05,47,229,00,07,65,070,00,09,57,045,00,13,05,180,00*58
$GPGGA,082331,2321.020144,N,08518.464630,E,1,13,,669.4,M,-55.4,M,,*47
$GPVTG,,T,,M,0.0,N,0.0,K,A*23
$GPRMC,082331,A,2321.020144,N,08518.464630,E,0.0,,040117,0.0,W,A*29
$GPGSA,A,3,01,03,11,14,22,32,,,,,,,2.3,1.5,1.7*37
$GNGSA,A,3,01,03,11,14,22,32,,,,,,,2.3,1.5,1.7*29
$GNGSA,A,3,70,71,79,85,86,,,,,,,,2.3,1.5,1.7*23
$BDGSA,A,3,,,,,,,,,,,,,2.3,1.5,1.7*20
$GPGSV,4,1,13,01,22,300,24,03,02,317,20,10,48,118,00,11,15,275,20*7F
$GPGSV,4,2,13,12,00,000,00,14,48,357,19,16,03,187,00,18,19,129,00*7F
$GPGSV,4,3,13,22,17,317,29,25,25,066,00,26,25,167,00,31,80,307,00*79
$GPGSV,4,4,13,32,40,036,14*4E
$GLGSV,3,1,10,68,04,113,00,69,42,077,00,70,40,354,15,71,04,317,11*64
$GLGSV,3,2,10,73,47,194,00,79,16,026,13,80,75,054,00,84,00,000,00*66
$GLGSV,3,3,10,85,08,255,24,86,02,303,24*6F
$BDGSV,2,1,8,01,23,105,00,02,60,181,00,03,48,130,00,04,04,095,00*5A
$BDGSV,2,2,8,05,47,229,00,07,65,070,00,09,57,045,00,13,05,180,00*58
$GPGGA,082332,2321.020149,N,08518.464627,E,1,13,,669.4,M,-55.4,M,,*4F
$GPVTG,,T,,M,0.0,N,0.0,K,A*23
$GPRMC,082332,A,2321.020149,N,08518.464627,E,0.0,,040117,0.0,W,A*21
$GPGSA,A,3,01,03,11,14,22,32,,,,,,,2.3,1.5,1.7*37
$GNGSA,A,3,01,03,11,14,22,32,,,,,,,2.3,1.5,1.7*29
$GNGSA,A,3,70,71,79,85,86,,,,,,,,2.3,1.5,1.7*23
$BDGSA,A,3,,,,,,,,,,,,,2.3,1.5,1.7*20
$GPGSV,4,1,13,01,22,300,23,03,02,317,18,10,48,118,00,11,15,275,20*73
$GPGSV,4,2,13,12,00,000,00,14,48,357,20,16,03,187,00,18,19,129,00*75
$GPGSV,4,3,13,22,17,317,29,25,25,066,00,26,25,167,00,31,80,307,00*79
$GPGSV,4,4,13,32,40,036,14*4E
$GLGSV,3,1,10,68,04,113,00,69,42,077,00,70,40,354,15,71,04,317,11*64
$GLGSV,3,2,10,73,47,194,00,79,16,026,13,80,75,054,00,84,00,000,00*66
$GLGSV,3,3,10,85,08,255,25,86,02,303,25*6F
$BDGSV,2,1,8,01,23,105,00,02,60,181,00,03,48,130,00,04,04,095,00*5A
$BDGSV,2,2,8,05,47,229,00,07,65,070,00,09,57,045,00,13,05,180,00*58
$GPGGA,082333,2321.020147,N,08518.464633,E,1,13,,669.4,M,-55.4,M,,*45
$GPVTG,,T,,M,0.0,N,0.0,K,A*23
$GPRMC,082333,A,2321.020147,N,08518.464633,E,0.0,,040117,0.0,W,A*2B
$GPGSA,A,3,01,03,11,14,22,32,,,,,,,2.3,1.5,1.7*37
$GNGSA,A,3,01,03,11,14,22,32,,,,,,,2.3,1.5,1.7*29
$GNGSA,A,3,70,71,79,85,86,,,,,,,,2.3,1.5,1.7*23
$BDGSA,A,3,,,,,,,,,,,,,2.3,1.5,1.7*20
$GPGSV,4,1,13,01,22,300,23,03,02,317,18,10,48,118,00,11,15,275,20*73
$GPGSV,4,2,13,12,00,000,00,14,48,357,20,16,03,187,00,18,19,129,00*75
$GPGSV,4,3,13,22,17,317,29,25,25,066,00,26,25,167,00,31,80,307,00*79
$GPGSV,4,4,13,32,40,036,15*4F
$GLGSV,3,1,10,68,04,113,00,69,42,077,00,70,40,354,15,71,04,317,15*60
$GLGSV,3,2,10,73,47,194,00,79,16,026,13,80,75,054,00,84,00,000,00*66
$GLGSV,3,3,10,85,08,255,24,86,02,303,24*6F
$BDGSV,2,1,8,01,23,105,00,02,60,181,00,03,48,130,00,04,04,095,00*5A
$BDGSV,2,2,8,05,47,229,00,07,65,070,00,09,57,045,00,13,05,180,00*58
$GPGGA,082334,2321.020146,N,08518.464637,E,1,13,,669.4,M,-55.4,M,,*47
$GPVTG,,T,,M,0.0,N,0.0,K,A*23
$GPRMC,082334,A,2321.020146,N,08518.464637,E,0.0,,040117,0.0,W,A*29
$GPGSA,A,3,01,03,11,14,22,32,,,,,,,2.9,1.9,2.2*37
$GNGSA,A,3,01,03,11,14,22,32,,,,,,,2.9,1.9,2.2*29
$GNGSA,A,3,70,71,85,86,,,,,,,,,2.9,1.9,2.2*2D
$BDGSA,A,3,,,,,,,,,,,,,2.9,1.9,2.2*20
$GPGSV,4,1,13,01,22,300,23,03,02,317,18,10,48,118,00,11,15,275,21*72
$GPGSV,4,2,13,12,00,000,00,14,48,357,21,16,03,187,00,18,19,129,00*74
$GPGSV,4,3,13,22,17,317,29,25,25,066,00,26,25,167,00,31,80,307,00*79
$GPGSV,4,4,13,32,40,036,15*4F
$GLGSV,3,1,9,68,04,113,00,69,42,077,00,70,40,354,15,71,04,317,19*54
$GLGSV,3,2,9,73,47,194,00,80,75,054,00,84,00,000,00,85,08,255,24*50
$GLGSV,3,3,9,86,02,303,25*67
$BDGSV,2,1,8,01,23,105,00,02,60,181,00,03,48,130,00,04,04,095,00*5A
$BDGSV,2,2,8,05,47,229,00,07,65,070,00,09,57,045,00,13,05,180,00*58
$GPGGA,082335,2321.020143,N,08518.464641,E,1,13,,669.4,M,-55.4,M,,*42
$GPVTG,,T,,M,0.0,N,0.0,K,A*23
$GPRMC,082335,A,2321.020143,N,08518.464641,E,0.0,,040117,0.0,W,A*2C
$GPGSA,A,3,01,03,11,14,22,31,32,,,,,,2.6,1.8,1.8*32
$GNGSA,A,3,01,03,11,14,22,31,32,,,,,,2.6,1.8,1.8*2C
$GNGSA,A,3,70,71,85,86,,,,,,,,,2.6,1.8,1.8*2A
$BDGSA,A,3,,,,,,,,,,,,,2.6,1.8,1.8*27
$GPGSV,4,1,13,01,22,300,23,03,02,317,21,10,48,118,00,11,15,275,22*7B
$GPGSV,4,2,13,12,00,000,00,14,48,357,21,16,03,187,00,18,19,129,00*74
$GPGSV,4,3,13,22,17,317,29,25,25,066,00,26,25,167,00,31,80,307,14*7C
$GPGSV,4,4,13,32,40,036,15*4F
$GLGSV,3,1,10,68,04,113,00,69,42,077,00,70,40,354,15,71,04,317,19*6C
$GLGSV,3,2,10,73,47,194,00,79,16,026,00,80,75,054,00,84,00,000,00*64
$GLGSV,3,3,10,85,08,255,22,86,02,303,25*68
$BDGSV,2,1,8,01,23,105,00,02,60,181,00,03,48,130,00,04,04,095,00*5A
$BDGSV,2,2,8,05,47,229,00,07,65,070,00,09,57,045,00,13,05,180,00*58
$GPGGA,082336,2321.020143,N,08518.464645,E,1,13,,669.4,M,-55.4,M,,*45
$GPVTG,,T,,M,0.0,N,0.0,K,A*23
$GPRMC,082336,A,2321.020143,N,08518.464645,E,0.0,,040117,0.0,W,A*2B
$GPGSA,A,3,01,03,11,14,22,31,32,,,,,,2.6,1.8,1.8*32
$GNGSA,A,3,01,03,11,14,22,31,32,,,,,,2.6,1.8,1.8*2C
$GNGSA,A,3,70,71,85,86,,,,,,,,,2.6,1.8,1.8*2A
$BDGSA,A,3,,,,,,,,,,,,,2.6,1.8,1.8*27
$GPGSV,4,1,13,01,22,300,23,03,02,317,21,10,48,118,00,11,15,275,21*78
$GPGSV,4,2,13,12,00,000,00,14,48,357,20,16,03,187,00,18,19,129,00*75
$GPGSV,4,3,13,22,17,317,29,25,25,066,00,26,25,167,00,31,80,307,14*7C
$GPGSV,4,4,13,32,40,036,16*4C
$GLGSV,3,1,10,68,04,113,00,69,42,077,00,70,40,354,15,71,04,317,18*6D
$GLGSV,3,2,10,73,47,194,00,79,16,026,00,80,75,054,00,84,00,000,00*64
$GLGSV,3,3,10,85,08,255,23,86,02,303,26*6A
$BDGSV,2,1,8,01,23,105,00,02,60,181,00,03,48,130,00,04,04,095,00*5A
$BDGSV,2,2,8,05,47,229,00,07,65,070,00,09,57,045,00,13,05,180,00*58
$GPGGA,082337,2321.020138,N,08518.464653,E,1,13,,669.4,M,-55.4,M,,*4F
$GPVTG,,T,,M,0.0,N,0.0,K,A*23
$GPRMC,082337,A,2321.020138,N,08518.464653,E,0.0,,040117,0.0,W,A*21
$GPGSA,A,3,01,03,11,14,22,31,32,,,,,,2.6,1.8,1.8*32
$GNGSA,A,3,01,03,11,14,22,31,32,,,,,,2.6,1.8,1.8*2C
$GNGSA,A,3,70,71,85,86,,,,,,,,,2.6,1.8,1.8*2A
$BDGSA,A,3,,,,,,,,,,,,,2.6,1.8,1.8*27
$GPGSV,4,1,13,01,22,300,23,03,02,317,18,10,48,118,00,11,15,275,22*71
$GPGSV,4,2,13,12,00,000,00,14,48,357,21,16,03,187,00,18,19,129,00*74
$GPGSV,4,3,13,22,17,317,29,25,25,066,00,26,25,167,00,31,80,307,14*7C
$GPGSV,4,4,13,32,40,036,16*4C
$GLGSV,3,1,10,68,04,113,00,69,42,077,00,70,40,354,15,71,04,317,19*6C
$GLGSV,3,2,10,73,47,194,00,79,16,026,00,80,75,054,00,84,00,000,00*64
$GLGSV,3,3,10,85,08,255,24,86,02,303,25*6E
$BDGSV,2,1,8,01,23,105,00,02,60,181,00,03,48,130,00,04,04,095,00*5A
$BDGSV,2,2,8,05,47,229,00,07,65,070,00,09,57,045,00,13,05,180,00*58
$GPGGA,082338,2321.020137,N,08518.464659,E,1,13,,669.4,M,-55.4,M,,*45
$GPVTG,,T,,M,0.0,N,0.0,K,A*23
$GPRMC,082338,A,2321.020137,N,08518.464659,E,0.0,,040117,0.0,W,A*2B
$GPGSA,A,3,01,03,11,14,22,31,32,,,,,,2.6,1.8,1.8*32
$GNGSA,A,3,01,03,11,14,22,31,32,,,,,,2.6,1.8,1.8*2C
$GNGSA,A,3,70,71,85,86,,,,,,,,,2.6,1.8,1.8*2A
$BDGSA,A,3,,,,,,,,,,,,,2.6,1.8,1.8*27
$GPGSV,4,1,13,01,22,300,23,03,02,317,20,10,48,118,00,11,15,275,21*79
$GPGSV,4,2,13,12,00,000,00,14,48,357,21,16,03,187,00,18,19,129,00*74
$GPGSV,4,3,13,22,17,317,29,25,25,066,00,26,25,167,00,31,80,307,14*7C
$GPGSV,4,4,13,32,40,036,16*4C
$GLGSV,3,1,10,68,04,113,00,69,42,077,00,70,40,354,15,71,04,317,18*6D
$GLGSV,3,2,10,73,47,194,00,79,16,026,00,80,75,054,00,84,00,000,00*64
$GLGSV,3,3,10,85,08,255,24,86,02,303,25*6E
$BDGSV,2,1,8,01,23,105,00,02,60,181,00,03,48,130,00,04,04,095,00*5A
$BDGSV,2,2,8,05,47,229,00,07,65,070,00,09,57,045,00,13,05,180,00*58
$GPGGA,082339,2321.020138,N,08518.464663,E,1,13,,669.4,M,-55.4,M,,*42
$GPVTG,,T,,M,0.0,N,0.0,K,A*23
$GPRMC,082339,A,2321.020138,N,08518.464663,E,0.0,,040117,0.0,W,A*2C
$GPGSA,A,3,01,03,11,14,22,31,32,,,,,,2.6,1.8,1.8*32
$GNGSA,A,3,01,03,11,14,22,31,32,,,,,,2.6,1.8,1.8*2C
$GNGSA,A,3,70,71,85,86,,,,,,,,,2.6,1.8,1.8*2A
$BDGSA,A,3,,,,,,,,,,,,,2.6,1.8,1.8*27
$GPGSV,4,1,13,01,22,300,23,03,02,317,21,10,48,118,00,11,15,275,24*7D
$GPGSV,4,2,13,12,00,000,00,14,48,357,21,16,03,187,00,18,19,129,00*74
$GPGSV,4,3,13,22,17,317,29,25,25,066,00,26,25,167,00,31,80,307,14*7C
$GPGSV,4,4,13,32,40,036,16*4C
$GLGSV,3,1,10,68,04,113,00,69,42,077,00,70,40,354,15,71,04,317,19*6C
$GLGSV,3,2,10,73,47,194,00,79,16,026,00,80,75,054,00,84,00,000,00*64
$GLGSV,3,3,10,85,08,255,23,86,02,303,24*68
$BDGSV,2,1,8,01,23,105,00,02,60,181,00,03,48,130,00,04,04,095,00*5A
$BDGSV,2,2,8,05,47,229,00,07,65,070,00,09,57,045,00,13,05,180,00*58
$GPGGA,082340,2321.020140,N,08518.464670,E,1,13,,669.4,M,-55.4,M,,*41
$GPVTG,,T,,M,0.0,N,0.0,K,A*23
$GPRMC,082340,A,2321.020140,N,08518.464670,E,0.0,,040117,0.0,W,A*2F
$GPGSA,A,3,01,03,11,14,22,31,32,,,,,,2.6,1.8,1.8*32
$GNGSA,A,3,01,03,11,14,22,31,32,,,,,,2.6,1.8,1.8*2C
$GNGSA,A,3,70,71,85,86,,,,,,,,,2.6,1.8,1.8*2A
$BDGSA,A,3,,,,,,,,,,,,,2.6,1.8,1.8*27
$GPGSV,4,1,13,01,22,300,23,03,02,317,19,10,48,118,00,11,15,275,24*76
$GPGSV,4,2,13,12,00,000,00,14,48,357,22,16,03,187,00,18,19,129,00*77
$GPGSV,4,3,13,22,17,317,28,25,25,066,00,26,25,167,00,31,80,307,14*7D
$GPGSV,4,4,13,32,40,036,16*4C
$GLGSV,3,1,10,68,04,113,00,69,42,077,00,70,40,354,15,71,04,317,19*6C
$GLGSV,3,2,10,73,47,194,00,79,16,026,00,80,75,054,00,84,00,000,00*64
$GLGSV,3,3,10,85,08,255,23,86,02,303,25*69
$BDGSV,2,1,8,01,23,105,00,02,60,181,00,03,48,130,00,04,04,095,00*5A
$BDGSV,2,2,8,05,47,229,00,07,65,070,00,09,57,045,00,13,05,180,00*58
$GPGGA,082341,2321.020140,N,08518.464672,E,1,13,,669.4,M,-55.4,M,,*42
$GPVTG,,T,,M,0.0,N,0.0,K,A*23
$GPRMC,082341,A,2321.020140,N,08518.464672,E,0.0,,040117,0.0,W,A*2C
$GPGSA,A,3,01,03,11,14,22,31,32,,,,,,2.6,1.8,1.8*32
$GNGSA,A,3,01,03,11,14,22,31,32,,,,,,2.6,1.8,1.8*2C
$GNGSA,A,3,70,71,85,86,,,,,,,,,2.6,1.8,1.8*2A
$BDGSA,A,3,,,,,,,,,,,,,2.6,1.8,1.8*27
$GPGSV,4,1,13,01,22,300,22,03,02,317,20,10,48,118,00,11,15,275,24*7D
$GPGSV,4,2,13,12,00,000,00,14,48,357,21,16,03,187,00,18,19,129,00*74
$GPGSV,4,3,13,22,17,317,28,25,25,066,00,26,25,167,00,31,80,307,14*7D
$GPGSV,4,4,13,32,40,036,16*4C
$GLGSV,3,1,10,68,04,113,00,69,42,077,00,70,40,354,15,71,04,317,18*6D
$GLGSV,3,2,10,73,47,194,00,79,16,026,00,80,75,054,00,84,00,000,00*64
$GLGSV,3,3,10,85,08,255,24,86,02,303,25*6E
$BDGSV,2,1,8,01,23,105,00,02,60,181,00,03,48,130,00,04,04,095,00*5A
$BDGSV,2,2,8,05,47,229,00,07,65,070,00,09,57,045,00,13,05,180,00*58
